[
  {
    "station": "CC.GTWY",
    "status": "observed",
    "flow_band": "5.0-15.0",
    "r": 0.76,
    "b": 1.42,
    "n": 8916,
    "lon": -121.917,
    "lat": 46.7402,
    "sr": 500.0,
    "basin": "Nisqually"
  },
  {
    "station": "CC.PR02",
    "status": "observed",
    "flow_band": "5.0-15.0",
    "r": 0.96,
    "b": 1.8,
    "n": 5574,
    "lon": -122.0487,
    "lat": 46.9183,
    "sr": 50.0,
    "basin": "Puyallup"
  },
  {
    "station": "CC.PR03",
    "status": "observed",
    "flow_band": "5.0-15.0",
    "r": 0.98,
    "b": 1.71,
    "n": 8824,
    "lon": -122.0327,
    "lat": 46.9034,
    "sr": 500.0,
    "basin": "Puyallup"
  },
  {
    "station": "CC.STYX",
    "status": "observed",
    "flow_band": "5.0-15.0",
    "r": 0.9,
    "b": 1.51,
    "n": 8738,
    "lon": -122.0805,
    "lat": 46.9637,
    "sr": 500.0,
    "basin": "Puyallup"
  },
  {
    "station": "UW.LON",
    "status": "observed",
    "flow_band": "5.0-15.0",
    "r": 0.85,
    "b": 1.98,
    "n": 5472,
    "lon": -121.8096,
    "lat": 46.7506,
    "sr": 100.0,
    "basin": ""
  },
  {
    "station": "CC.PR01",
    "status": "marginal",
    "flow_band": "5.0-15.0",
    "r": 0.69,
    "b": 0.79,
    "n": 8340,
    "lon": -122.0376,
    "lat": 46.9101,
    "sr": 50.0,
    "basin": "Puyallup"
  },
  {
    "station": "CC.TRON",
    "status": "marginal",
    "flow_band": "5.0-15.0",
    "r": 0.52,
    "b": 0.56,
    "n": 8793,
    "lon": -122.1753,
    "lat": 46.9977,
    "sr": 500.0,
    "basin": "Carbon"
  },
  {
    "station": "CC.CARB",
    "status": "none",
    "flow_band": "5.0-15.0",
    "r": -0.35,
    "b": -0.24,
    "n": 8830,
    "lon": -122.0054,
    "lat": 46.9883,
    "sr": 500.0,
    "basin": "Carbon"
  },
  {
    "station": "CC.SIFT",
    "status": "none",
    "flow_band": "5.0-15.0",
    "r": 0.32,
    "b": 0.77,
    "n": 8916,
    "lon": -121.9533,
    "lat": 46.8668,
    "sr": 500.0,
    "basin": "Mowich"
  },
  {
    "station": "UW.RER",
    "status": "none",
    "flow_band": "1.0-5.0",
    "r": 0.03,
    "b": 0.03,
    "n": 4297,
    "lon": -121.8425,
    "lat": 46.8186,
    "sr": 100.0,
    "basin": ""
  },
  {
    "station": "UW.STOR",
    "status": "none",
    "flow_band": "2.0-8.0",
    "r": 0.18,
    "b": 0.14,
    "n": 3314,
    "lon": -121.9888,
    "lat": 47.1881,
    "sr": 100.0,
    "basin": ""
  },
  {
    "station": "UW.UPS",
    "status": "none",
    "flow_band": "2.0-8.0",
    "r": 0.01,
    "b": 0.01,
    "n": 4136,
    "lon": null,
    "lat": null,
    "sr": null,
    "basin": null
  },
  {
    "station": "UW.BHW",
    "status": "control",
    "flow_band": null,
    "r": null,
    "b": null,
    "n": 0,
    "lon": null,
    "lat": null,
    "sr": null,
    "basin": null
  },
  {
    "station": "UW.TEHA",
    "status": "control",
    "flow_band": "5.0-15.0",
    "r": 0.01,
    "b": 0.02,
    "n": 3528,
    "lon": -122.1963,
    "lat": 47.1279,
    "sr": 200.0,
    "basin": ""
  }
]