[
  {
    "station": "CC.GTWY",
    "status": "observed",
    "flow_band": "5.0-15.0",
    "r": 0.89,
    "b": 1.63,
    "n": 4297,
    "lon": -121.917,
    "lat": 46.7402,
    "sr": 500.0,
    "basin": "Nisqually"
  },
  {
    "station": "CC.PR01",
    "status": "observed",
    "flow_band": "5.0-15.0",
    "r": 0.88,
    "b": 1.19,
    "n": 4300,
    "lon": -122.0376,
    "lat": 46.9101,
    "sr": 50.0,
    "basin": "Puyallup"
  },
  {
    "station": "CC.PR02",
    "status": "observed",
    "flow_band": "5.0-15.0",
    "r": 0.94,
    "b": 1.67,
    "n": 4300,
    "lon": -122.0487,
    "lat": 46.9183,
    "sr": 50.0,
    "basin": "Puyallup"
  },
  {
    "station": "CC.PR03",
    "status": "observed",
    "flow_band": "5.0-15.0",
    "r": 0.94,
    "b": 1.66,
    "n": 4300,
    "lon": -122.0327,
    "lat": 46.9034,
    "sr": 500.0,
    "basin": "Puyallup"
  },
  {
    "station": "CC.STYX",
    "status": "observed",
    "flow_band": "5.0-15.0",
    "r": 0.84,
    "b": 1.4,
    "n": 4300,
    "lon": -122.0805,
    "lat": 46.9637,
    "sr": 500.0,
    "basin": "Puyallup"
  },
  {
    "station": "UW.LON",
    "status": "observed",
    "flow_band": "5.0-15.0",
    "r": 0.91,
    "b": 2.24,
    "n": 4009,
    "lon": -121.8096,
    "lat": 46.7506,
    "sr": 100.0,
    "basin": ""
  },
  {
    "station": "CC.SIFT",
    "status": "marginal",
    "flow_band": "5.0-15.0",
    "r": 0.6,
    "b": 1.24,
    "n": 4300,
    "lon": -121.9533,
    "lat": 46.8668,
    "sr": 500.0,
    "basin": "Mowich"
  },
  {
    "station": "CC.TRON",
    "status": "marginal",
    "flow_band": "5.0-15.0",
    "r": 0.53,
    "b": 0.6,
    "n": 4284,
    "lon": -122.1753,
    "lat": 46.9977,
    "sr": 500.0,
    "basin": "Carbon"
  },
  {
    "station": "CC.CARB",
    "status": "none",
    "flow_band": "5.0-15.0",
    "r": -0.17,
    "b": -0.13,
    "n": 4297,
    "lon": -122.0054,
    "lat": 46.9883,
    "sr": 500.0,
    "basin": "Carbon"
  },
  {
    "station": "UW.RER",
    "status": "none",
    "flow_band": "1.0-5.0",
    "r": 0.03,
    "b": 0.03,
    "n": 4297,
    "lon": -121.8425,
    "lat": 46.8186,
    "sr": 100.0,
    "basin": ""
  },
  {
    "station": "UW.UPS",
    "status": "none",
    "flow_band": "2.0-8.0",
    "r": 0.02,
    "b": 0.06,
    "n": 4306,
    "lon": null,
    "lat": null,
    "sr": null,
    "basin": null
  },
  {
    "station": "UW.BHW",
    "status": "control",
    "flow_band": null,
    "r": null,
    "b": null,
    "n": 0,
    "lon": null,
    "lat": null,
    "sr": null,
    "basin": null
  },
  {
    "station": "UW.TEHA",
    "status": "control",
    "flow_band": "5.0-15.0",
    "r": -0.05,
    "b": -0.17,
    "n": 4306,
    "lon": -122.1963,
    "lat": 47.1279,
    "sr": 200.0,
    "basin": ""
  }
]